,City,Lat,Lng,Max Temp,Humidity,Cloudiness,Wind Speed,Country,Date
0,new norfolk,-42.7826,147.0587,43.92,78,82,4.0,AU,1627165736
1,victoria,22.2855,114.1577,82.38,93,96,4.0,HK,1627165668
2,rikitea,-23.1203,-134.9692,69.26,54,0,1.43,PF,1627165737
3,punta arenas,-53.15,-70.9167,37.51,81,75,16.11,CL,1627165445
4,bredasdorp,-34.5322,20.0403,40.32,93,15,3.44,ZA,1627165737
5,ryotsu,38.0833,138.4333,82.36,82,6,2.68,JP,1627165738
6,albany,42.6001,-73.9662,80.55,58,87,1.99,US,1627165496
7,kawanoe,34.0167,133.5667,79.2,77,97,2.35,JP,1627165738
8,luderitz,-26.6481,15.1594,64.45,25,20,5.37,NA,1627165739
9,edd,13.9297,41.6925,88.47,68,100,3.15,ER,1627165739
10,hermanus,-34.4187,19.2345,50.9,56,14,5.68,ZA,1627165739
11,college,64.8569,-147.8028,64.99,69,75,8.05,US,1627165577
12,mocuba,-16.8392,36.9856,58.96,91,55,5.3,MZ,1627165740
13,nikolskoye,59.7035,30.7861,56.01,68,42,3.98,RU,1627165740
14,kuusamo,65.9667,29.1833,57.24,72,90,9.22,FI,1627165740
15,hithadhoo,-0.6,73.0833,81.75,78,48,10.78,MV,1627165741
16,alta floresta,-9.8756,-56.0861,82.63,32,44,3.22,BR,1627165741
17,puerto ayora,-0.7393,-90.3518,82.36,82,24,8.01,EC,1627165653
18,iqaluit,63.7506,-68.5145,46.13,81,90,13.8,CA,1627165741
19,butaritari,3.0707,172.7902,83.57,74,86,14.63,KI,1627165742
20,geraldton,-28.7667,114.6,54.12,94,90,10.36,AU,1627165742
21,hervey bay,-25.2986,152.8535,60.91,54,0,8.9,AU,1627165742
22,isangel,-19.55,169.2667,82.51,74,40,5.75,VU,1627165743
23,doha,25.2867,51.5333,94.98,65,28,8.05,QA,1627165743
24,saint anthony,45.0205,-93.218,92.93,25,1,3.0,US,1627165743
25,honiara,-9.4333,159.95,82.45,75,46,6.49,SB,1627165744
26,buala,-8.145,159.5921,80.13,85,94,11.05,SB,1627165744
27,ladario,-19.0047,-57.6017,82.67,33,0,2.82,BR,1627165745
28,hamirpur,25.95,80.15,84.96,75,8,12.41,IN,1627165745
29,avera,33.194,-82.5271,91.44,41,12,6.53,US,1627165746
30,kapaa,22.0752,-159.319,84.18,82,90,5.99,US,1627165746
31,bluff,-46.6,168.3333,45.81,69,100,10.07,NZ,1627165747
32,tuktoyaktuk,69.4541,-133.0374,66.2,45,75,14.97,CA,1627165747
33,kaura namoda,12.5898,6.5779,76.57,79,56,10.54,NG,1627165748
34,busselton,-33.65,115.3333,57.09,71,98,16.96,AU,1627165749
35,shaunavon,49.6501,-108.4181,83.71,16,0,5.59,CA,1627165749
36,kavieng,-2.5744,150.7967,82.83,75,17,9.28,PG,1627165750
37,necochea,-38.5473,-58.7368,48.04,71,97,16.04,AR,1627165750
38,erzin,36.9559,36.2,79.52,87,5,0.49,TR,1627165750
39,staroutkinsk,57.2302,59.3348,53.82,98,99,6.22,RU,1627165751
40,luganville,-15.5333,167.1667,81.77,76,44,3.31,VU,1627165751
41,taoudenni,22.6783,-3.9836,102.78,8,3,9.1,ML,1627165751
42,novikovo,51.1537,37.8879,60.35,71,38,3.98,RU,1627165752
43,waingapu,-9.6567,120.2641,70.34,78,14,4.34,ID,1627165752
44,rio gallegos,-51.6226,-69.2181,39.25,70,0,1.14,AR,1627165752
45,fortuna,40.5982,-124.1573,73.85,72,1,14.97,US,1627165753
46,mataura,-46.1927,168.8643,45.48,83,100,3.69,NZ,1627165753
47,jamestown,42.097,-79.2353,73.71,84,75,8.99,US,1627165634
48,constitucion,-35.3333,-72.4167,51.82,90,99,14.61,CL,1627165556
49,lorengau,-2.0226,147.2712,82.42,73,55,5.08,PG,1627165754
50,esperance,-33.8667,121.9,49.84,80,5,17.78,AU,1627165755
51,hovd,48.0056,91.6419,63.1,52,20,1.68,MN,1627165755
52,turayf,31.6725,38.6637,77.25,57,0,9.22,SA,1627165756
53,clarence town,-32.5833,151.7833,55.98,61,40,14.76,AU,1627165756
54,tocopilla,-22.092,-70.1979,64.78,70,26,14.81,CL,1627165756
55,qaanaaq,77.484,-69.3632,41.4,67,100,2.24,GL,1627165757
56,cape town,-33.9258,18.4232,51.28,81,19,2.3,ZA,1627165545
57,georgetown,5.4112,100.3354,82.89,90,20,2.3,MY,1627165541
58,yarim,14.298,44.3779,60.08,69,100,4.65,YE,1627165758
59,kotelnikovo,47.6317,43.1461,72.05,42,0,5.21,RU,1627165758
60,bethel,41.3712,-73.414,79.81,60,20,8.05,US,1627165758
61,tasiilaq,65.6145,-37.6368,42.96,98,100,5.17,GL,1627165759
62,ngunguru,-35.6167,174.5,61.16,73,80,16.22,NZ,1627165759
63,norman wells,65.282,-126.8329,68.04,37,20,11.5,CA,1627165759
64,hobart,-42.8794,147.3294,44.26,72,40,4.0,AU,1627165530
65,petropavlovsk-kamchatskiy,53.0452,158.6483,59.59,100,90,4.47,RU,1627165760
66,ponta do sol,32.6667,-17.1,72.72,81,0,4.7,PT,1627165761
67,atuona,-9.8,-139.0333,78.84,69,37,16.82,PF,1627165761
68,kaitangata,-46.2817,169.8464,43.93,53,83,4.09,NZ,1627165761
69,port alfred,-33.5906,26.891,53.8,71,0,17.31,ZA,1627165762
70,hilo,19.7297,-155.09,81.63,88,90,6.91,US,1627165672
71,walvis bay,-22.9575,14.5053,66.09,11,6,12.66,NA,1627165762
72,guarapari,-20.6667,-40.4975,67.89,72,0,7.76,BR,1627165763
73,lichuan,30.3,108.85,62.29,95,4,1.81,CN,1627165763
74,dikson,73.5069,80.5464,37.74,95,100,14.79,RU,1627165763
75,flinders,-34.5833,150.8552,52.21,56,35,15.99,AU,1627165764
76,thompson,55.7435,-97.8558,73.56,53,40,10.36,CA,1627165480
77,marfino,55.7028,37.3822,58.08,79,0,2.24,RU,1627165765
78,alofi,-19.0595,-169.9187,82.29,74,25,6.91,NU,1627165765
79,lebu,-37.6167,-73.65,51.22,80,99,17.67,CL,1627165766
80,pevek,69.7008,170.3133,36.97,90,93,12.06,RU,1627165766
81,provideniya,64.3833,-173.3,47.35,98,100,13.73,RU,1627165767
82,verkh-usugli,52.7,115.1667,56.82,83,98,3.89,RU,1627165767
83,katangli,51.7102,143.2326,67.71,93,83,4.79,RU,1627165768
84,erattupetta,9.7,76.7833,76.3,96,67,0.76,IN,1627165768
85,yushu,44.8,126.5333,72.34,84,100,7.23,CN,1627165769
86,moanda,-1.5575,13.2178,72.12,78,70,2.98,GA,1627165769
87,mayo,38.8876,-76.5119,83.35,63,40,7.0,US,1627165770
88,beyneu,45.3167,55.2,84.33,41,59,13.35,KZ,1627165771
89,pacifica,37.6138,-122.4869,96.93,74,40,4.0,US,1627165756
90,mana,5.6592,-53.7767,78.26,87,100,9.55,GF,1627165771
91,ushuaia,-54.8,-68.3,37.06,75,75,5.75,AR,1627165772
92,baran,25.1,76.5167,81.52,83,100,4.79,IN,1627165772
93,catuday,16.2923,119.8062,81.0,80,100,19.08,PH,1627165772
94,indramayu,-6.3264,108.32,76.84,80,0,8.39,ID,1627165773
95,broken hill,-31.95,141.4333,42.51,87,52,13.8,AU,1627165773
96,robertson,36.5167,-86.8667,93.4,59,1,5.75,US,1627165774
97,lompoc,34.6391,-120.4579,89.69,68,20,11.5,US,1627165539
98,ust-shonosha,61.1531,41.343,51.73,64,100,5.03,RU,1627165774
99,wanning,18.8003,110.3967,79.03,85,29,7.92,CN,1627165775
100,cidreira,-30.1811,-50.2056,61.0,73,1,6.96,BR,1627165775
101,vaini,-21.2,-175.2,80.76,89,20,8.05,TO,1627165775
102,carnarvon,-24.8667,113.6333,59.07,70,100,10.36,AU,1627165776
103,floro,61.5996,5.0328,65.23,94,90,3.44,NO,1627165776
104,severo-yeniseyskiy,60.3725,93.0408,58.98,70,2,3.76,RU,1627165777
105,henties bay,-22.116,14.2845,65.86,36,0,7.99,NA,1627165777
106,yumen,40.2833,97.2,73.33,51,44,4.85,CN,1627165778
107,salalah,17.0151,54.0924,78.89,94,90,6.91,OM,1627165778
108,saint george,37.1041,-113.5841,90.19,48,20,11.01,US,1627165779
109,lafiagi,8.8667,5.4167,71.65,97,66,2.57,NG,1627165779
110,narsaq,60.9167,-46.05,50.22,84,70,1.86,GL,1627165780
111,saint-philippe,-21.3585,55.7679,67.55,79,37,4.97,RE,1627165780
112,sitka,57.0531,-135.33,57.09,82,90,6.91,US,1627165781
113,torbay,47.6666,-52.7314,63.57,87,75,12.66,CA,1627165782
114,nemuro,43.3236,145.575,63.45,97,90,8.61,JP,1627165782
115,mata,40.683,-7.4592,59.94,84,50,4.32,PT,1627165783
116,tuatapere,-46.1333,167.6833,45.82,79,100,6.42,NZ,1627165783
117,avarua,-21.2078,-159.775,78.85,69,20,9.22,CK,1627165638
118,east london,-33.0153,27.9116,55.02,68,0,14.43,ZA,1627165784
119,rocha,-34.4833,-54.3333,54.61,91,100,6.49,UY,1627165784
120,sikeston,36.8767,-89.5879,94.89,55,40,6.91,US,1627165599
121,hokitika,-42.7167,170.9667,48.43,79,96,7.52,NZ,1627165785
122,namibe,-15.1961,12.1522,65.5,84,0,5.97,AO,1627165785
123,ancud,-41.8697,-73.8203,44.13,77,100,3.91,CL,1627165786
124,pangnirtung,66.1451,-65.7125,52.59,62,100,8.75,CA,1627165786
125,bambous virieux,-20.3428,57.7575,70.05,83,40,11.5,MU,1627165787
126,roald,62.5833,6.1333,62.17,94,90,3.44,NO,1627165787
127,port elizabeth,-33.918,25.5701,50.29,76,40,6.91,ZA,1627165787
128,strezhevoy,60.7333,77.5889,62.58,91,94,6.33,RU,1627165788
129,barrow,71.2906,-156.7887,41.02,87,90,5.75,US,1627165788
130,yellowknife,62.456,-114.3525,58.32,52,75,1.01,CA,1627165789
131,hashimoto,34.3167,135.6167,81.75,76,70,1.36,JP,1627165789
132,mamu kanjan,30.8333,72.8,92.91,50,8,5.88,PK,1627165789
133,bandarbeyla,9.4942,50.8122,77.04,76,31,27.58,SO,1627165790
134,aconibe,1.2968,10.9369,67.26,96,93,4.34,GQ,1627165790
135,kruisfontein,-34.0033,24.7314,47.25,43,4,8.57,ZA,1627165791
136,chokurdakh,70.6333,147.9167,44.13,66,75,15.64,RU,1627165791
137,nizhniy kuranakh,58.8353,125.4869,60.12,97,99,0.67,RU,1627165791
138,praia da vitoria,38.7333,-27.0667,75.45,78,20,13.98,PT,1627165792
139,upernavik,72.7868,-56.1549,40.1,83,94,5.41,GL,1627165793
140,phuket,8.0,98.25,82.62,78,20,10.36,TH,1627165652
141,buta,2.7858,24.73,69.62,98,83,0.98,CD,1627165793
142,gao,16.6362,1.637,79.93,66,65,3.58,ML,1627165794
143,namatanai,-3.6667,152.4333,81.55,75,12,3.51,PG,1627165794
144,hasaki,35.7333,140.8333,79.29,80,0,9.66,JP,1627165794
145,klaksvik,62.2266,-6.589,50.92,95,82,14.47,FO,1627165795
146,arraial do cabo,-22.9661,-42.0278,70.43,75,0,23.29,BR,1627165795
147,olafsvik,64.8945,-23.7142,50.11,86,80,14.0,IS,1627165796
148,gamba,-2.65,10.0,70.61,84,66,4.94,GA,1627165796
149,lazaro cardenas,17.9583,-102.2,85.48,75,50,9.75,MX,1627165796
150,khatanga,71.9667,102.5,56.43,62,57,17.52,RU,1627165797
151,north bend,43.4065,-124.2243,67.15,82,75,29.93,US,1627165621
152,banon,40.8382,-1.1909,72.18,73,0,5.75,ES,1627165797
153,puerto colombia,10.9878,-74.9547,71.69,77,100,8.43,CO,1627165798
154,nelson bay,-32.7167,152.15,56.1,62,26,4.0,AU,1627165798
155,khani,41.9563,42.9566,63.97,98,100,0.74,GE,1627165798
156,mar del plata,-38.0023,-57.5575,51.13,60,90,11.99,AR,1627165798
157,iranshahr,27.2025,60.6848,94.95,40,67,1.99,IR,1627165799
158,bathsheba,13.2167,-59.5167,81.21,83,40,10.36,BB,1627165799
159,cabo san lucas,22.8909,-109.9124,96.51,57,20,11.01,MX,1627165718
160,port hedland,-20.3167,118.5667,57.25,72,29,4.61,AU,1627165799
161,jiayuguan,39.8167,98.3,75.13,49,88,5.91,CN,1627165800
162,lagoa,39.05,-27.9833,69.84,91,49,13.8,PT,1627165800
163,puyo,-1.4667,-77.9833,78.04,61,75,5.75,EC,1627165801
164,san patricio,28.017,-97.5169,96.78,43,0,16.13,US,1627165804
165,tokur,53.1333,132.9,67.24,89,98,3.44,RU,1627165805
166,san quintin,30.4833,-115.95,72.19,74,93,10.6,MX,1627165806
167,atar,20.5169,-13.0499,96.22,19,81,6.26,MR,1627165806
168,mahebourg,-20.4081,57.7,70.09,83,40,11.5,MU,1627165807
169,leningradskiy,69.3833,178.4167,37.24,95,100,5.08,RU,1627165755
170,mount gambier,-37.8333,140.7667,42.71,81,40,9.22,AU,1627165807
171,bemidji,47.4736,-94.8803,87.19,25,1,19.57,US,1627165808
172,sainte-martine,45.2501,-73.7992,80.94,45,91,6.91,CA,1627165808
173,illapel,-31.6308,-71.1653,52.72,75,79,2.57,CL,1627165572
174,tucuman,-26.8241,-65.2226,71.6,43,17,0.0,AR,1627165809
175,yulara,-25.2406,130.9889,39.04,70,42,5.75,AU,1627165809
176,petauke,-14.2426,31.3253,56.08,65,40,11.14,ZM,1627165809
177,vanimo,-2.6741,141.3028,74.66,93,100,9.95,PG,1627165810
178,kez,57.8979,53.7152,43.43,77,21,4.63,RU,1627165810
179,gobabis,-22.45,18.9667,43.88,44,0,12.57,NA,1627165811
180,clyde river,70.4692,-68.5914,34.03,100,90,18.41,CA,1627165811
181,kodiak,57.79,-152.4072,58.51,77,90,8.05,US,1627165811
182,nsanje,-16.92,35.262,59.63,89,59,3.47,MW,1627165812
183,hauterive,46.0901,3.4459,68.76,91,5,3.6,FR,1627165813
184,hambantota,6.1241,81.1185,79.07,83,94,14.32,LK,1627165813
185,sao filipe,14.8961,-24.4956,74.19,73,54,8.84,CV,1627165814
186,nanortalik,60.1432,-45.2371,43.23,97,100,10.63,GL,1627165814
187,colares,38.7992,-9.4469,68.29,75,26,5.01,PT,1627165815
188,mariinsk,56.2139,87.7472,65.97,83,99,1.81,RU,1627165816
189,haines junction,60.7522,-137.5108,60.75,55,90,6.91,CA,1627165816
190,ponta delgada,37.7333,-25.6667,72.32,88,20,4.61,PT,1627165816
191,hamilton,39.1834,-84.5333,88.36,62,1,1.01,US,1627165815
192,longyearbyen,78.2186,15.6401,42.64,87,75,17.27,SJ,1627165817
193,poli,-3.3333,36.8,53.2,85,52,5.28,TZ,1627165817
194,adwa,14.1646,38.8955,61.05,92,99,1.72,ET,1627165818
195,copiapo,-27.3667,-70.3333,55.09,56,1,1.83,CL,1627165818
196,san luis de la paz,21.3,-100.5167,70.81,52,68,15.88,MX,1627165818
197,mattru,7.6244,-11.8332,71.46,96,100,1.79,SL,1627165819
198,te anau,-45.4167,167.7167,46.83,79,100,3.2,NZ,1627165819
199,oktyabrskoye,43.0645,44.7417,66.34,94,65,2.24,RU,1627165819
200,bengkulu,-3.8004,102.2655,75.22,84,26,4.41,ID,1627165820
201,gongzhuling,43.5008,124.8198,77.29,76,83,9.35,CN,1627165820
202,portland,45.5234,-122.6762,93.56,37,1,3.0,US,1627165254
203,gorontalo,0.5412,123.0595,76.53,82,100,1.63,ID,1627165821
204,moa,20.6569,-74.9403,81.9,81,97,7.74,CU,1627165821
205,dubbo,-32.25,148.6167,42.93,93,90,10.36,AU,1627165603
206,svetlogorsk,52.6333,29.7333,66.38,70,94,0.94,BY,1627165822
207,barra do garcas,-15.89,-52.2567,74.12,38,0,1.28,BR,1627165822
208,padang,-0.9492,100.3543,76.78,83,90,3.74,ID,1627165822
209,zhigansk,66.7697,123.3711,61.29,64,30,17.56,RU,1627165823
210,chapais,49.7834,-74.8492,74.98,45,100,13.11,CA,1627165824
211,cherskiy,68.75,161.3,52.43,62,84,4.79,RU,1627165824
212,port lincoln,-34.7333,135.8667,54.82,73,63,18.32,AU,1627165824
213,port macquarie,-31.4333,152.9167,60.89,54,2,12.91,AU,1627165677
214,chicama,-7.8447,-79.1469,66.74,78,18,6.38,PE,1627165825
215,usinsk,65.9939,57.5281,39.92,92,76,9.62,RU,1627165825
216,varna,43.2167,27.9167,65.88,89,0,5.75,BG,1627165717
217,hobyo,5.3505,48.5268,76.39,78,71,25.66,SO,1627165826
218,halifax,44.6453,-63.5724,72.41,70,47,1.99,CA,1627165826
219,castro,-24.7911,-50.0119,54.3,73,0,3.27,BR,1627165827
220,bay roberts,47.5999,-53.2648,63.52,83,51,5.99,CA,1627165827
221,vestmannaeyjar,63.4427,-20.2734,51.84,90,83,13.82,IS,1627165827
222,saldanha,-33.0117,17.9442,48.25,59,48,11.12,ZA,1627165828
223,kota kinabalu,5.9749,116.0724,76.98,83,20,5.75,MY,1627165828
224,puerto carreno,6.189,-67.4859,78.66,85,100,3.42,CO,1627165756
225,kijang,35.2442,129.2139,82.13,84,100,7.56,KR,1627165829
226,severo-kurilsk,50.6789,156.125,56.55,92,66,2.17,RU,1627165829
227,matara,5.9485,80.5353,77.02,90,97,8.01,LK,1627165830
228,half moon bay,37.4636,-122.4286,97.12,59,1,1.01,US,1627165830
229,itabira,-19.6192,-43.2269,55.27,79,0,1.68,BR,1627165831
230,monmouth,40.3001,-74.1663,81.99,61,1,8.05,US,1627165831
231,ust-kut,56.7938,105.7672,65.79,67,22,2.33,RU,1627165832
232,beringovskiy,63.05,179.3167,55.15,78,100,8.01,RU,1627165832
233,ilulissat,69.2167,-51.1,44.62,81,75,10.36,GL,1627165833
234,saint-paul,-21.0096,55.2707,68.09,80,73,7.47,RE,1627165833
235,general pico,-35.6566,-63.7568,52.03,74,77,7.61,AR,1627165834
236,taywarah,33.35,64.4167,60.28,28,36,3.38,AF,1627165834
237,saint-louis,16.3333,-15.0,89.24,55,50,15.5,SN,1627165834
238,dingle,10.9995,122.6711,79.92,85,84,14.18,PH,1627165834
239,tautira,-17.7333,-149.15,82.42,72,17,8.21,PF,1627165835
240,karratha,-20.7377,116.8463,68.54,45,93,7.63,AU,1627165836
241,poplar bluff,36.757,-90.3929,94.78,71,1,4.61,US,1627165836
242,caravelas,-17.7125,-39.2481,71.44,64,86,8.81,BR,1627165836
243,bara,10.3744,10.7288,72.41,94,44,6.98,NG,1627165837
244,huarmey,-10.0681,-78.1522,66.02,77,17,8.3,PE,1627165837
245,brae,60.3964,-1.353,55.31,88,37,2.86,GB,1627165838
246,nouadhibou,20.931,-17.0347,71.58,83,2,11.5,MR,1627165838
247,cap malheureux,-19.9842,57.6142,70.29,79,4,5.01,MU,1627165838
248,noumea,-22.2763,166.4572,73.99,99,1,0.54,NC,1627165838
249,rebrikha,53.0733,82.3408,61.84,87,46,1.25,RU,1627165839
250,vila franca do campo,37.7167,-25.4333,72.01,93,26,5.86,PT,1627165840
251,santander,43.4647,-3.8044,68.47,83,90,7.0,ES,1627165841
252,codrington,-38.2667,141.9667,44.96,78,89,17.45,AU,1627165841
253,vredendal,-31.6683,18.5012,54.54,25,21,11.74,ZA,1627165841
254,ribeira grande,38.5167,-28.7,71.65,91,56,8.59,PT,1627165842
255,evensk,61.95,159.2333,51.22,97,100,4.23,RU,1627165842
256,champerico,14.3,-91.9167,91.94,73,91,3.94,GT,1627165842
257,khuzhir,53.1939,107.3397,53.67,85,7,5.14,RU,1627165843
258,perth,-31.9333,115.8333,55.09,98,75,4.61,AU,1627165801
259,bousse,12.6606,-1.8922,78.37,66,92,6.91,BF,1627165843
260,qaqortoq,60.7167,-46.0333,50.5,92,74,3.69,GL,1627165844
261,amahai,-3.3333,128.9167,76.41,86,100,2.93,ID,1627165845
262,airai,-8.9266,125.4092,60.17,37,5,2.77,TL,1627165845
263,santa pola,38.1917,-0.5658,82.09,89,0,1.01,ES,1627165845
264,biograd na moru,43.9433,15.4519,78.76,76,75,10.27,HR,1627165846
265,lasa,46.6166,10.7002,68.88,93,54,3.06,IT,1627165846
266,culebra,18.303,-65.301,81.19,80,78,19.71,PR,1627165846
267,jiuquan,39.7432,98.5174,77.05,47,95,7.52,CN,1627165847
268,lavrentiya,65.5833,-171.0,44.76,98,100,11.34,RU,1627165847
269,nyagan,62.1406,65.3936,52.77,83,61,7.92,RU,1627165847
270,dar es salaam,-6.8235,39.2695,74.52,68,50,13.85,TZ,1627165848
271,nishihara,26.1842,127.7558,80.26,97,75,23.02,JP,1627165848
272,ugoofaaru,5.6667,73.0,81.18,77,90,5.55,MV,1627165848
273,bilibino,68.0546,166.4372,56.57,54,49,3.29,RU,1627165849
274,mukerian,31.9506,75.6158,87.15,63,100,5.57,IN,1627165849
275,ahipara,-35.1667,173.1667,59.34,76,100,15.08,NZ,1627165850
276,ahuimanu,21.4447,-157.8378,89.31,69,75,16.11,US,1627165850
277,vanderhoof,54.0166,-124.0198,73.83,33,92,10.74,CA,1627165815
278,port-gentil,-0.7193,8.7815,75.31,74,97,10.71,GA,1627165851
279,humboldt,40.6665,-123.9178,65.05,32,2,7.25,US,1627165851
280,kahului,20.8947,-156.47,86.02,78,40,21.85,US,1627165851
281,kloulklubed,7.0419,134.2556,82.9,74,100,10.87,PW,1627165852
282,marrakesh,31.6315,-8.0083,89.67,37,40,8.05,MA,1627165619
283,umm lajj,25.0213,37.2685,84.7,50,0,6.58,SA,1627165853
284,kilis,36.7161,37.115,79.03,71,0,6.13,TR,1627165853
285,chuy,-33.6971,-53.4616,55.85,85,98,6.89,UY,1627165853
286,sorland,67.667,12.6934,52.45,95,100,14.88,NO,1627165854
287,zaysan,47.4667,84.8667,67.53,54,2,7.02,KZ,1627165854
288,lamar,33.6668,-95.5836,95.52,61,20,8.05,US,1627165854
289,ariquemes,-9.9133,-63.0408,85.15,40,12,1.54,BR,1627165648
290,martapura,-3.4167,114.85,69.89,100,18,1.14,ID,1627165855
291,tiksi,71.6872,128.8694,42.55,79,40,4.83,RU,1627165855
292,karla,59.3723,24.9275,61.05,78,0,2.3,EE,1627165856
293,maniitsoq,65.4167,-52.9,40.41,80,76,0.92,GL,1627165856
294,the pas,53.8251,-101.2541,75.22,50,20,11.34,CA,1627165857
295,hualmay,-11.0964,-77.6139,64.44,79,31,8.19,PE,1627165857
296,lugovoy,42.9472,72.7644,74.44,31,0,4.47,KZ,1627165858
297,kununurra,-15.7667,128.7333,71.58,49,95,6.91,AU,1627165858
298,yerbogachen,61.2767,108.0108,67.21,62,99,3.42,RU,1627165858
299,pisco,-13.7,-76.2167,64.45,72,0,19.57,PE,1627165859
300,daru,-9.0763,143.2092,77.43,90,100,11.68,PG,1627165859
301,lichtenburg,-26.152,26.1597,36.21,43,0,7.83,ZA,1627165859
302,oussouye,12.485,-16.5469,82.58,72,93,5.84,SN,1627165860
303,koroni,36.8,21.95,71.31,67,0,3.94,GR,1627165860
304,kanniyakumari,8.0833,77.5667,78.71,83,98,18.61,IN,1627165861
305,olavarria,-36.8927,-60.3225,47.98,70,99,11.07,AR,1627165861
306,wagar,16.1525,36.2032,73.49,89,100,14.16,SD,1627165861
307,saskylakh,71.9167,114.0833,62.15,59,100,6.62,RU,1627165862
308,vilhena,-12.7406,-60.1458,84.42,39,20,4.61,BR,1627165862
309,sur,22.5667,59.5289,88.97,62,82,9.4,OM,1627165863
310,san martin,-33.081,-68.4681,54.14,42,2,7.7,AR,1627165863
311,guerrero negro,27.9769,-114.0611,76.51,65,100,14.54,MX,1627165864
312,dakar,14.6937,-17.4441,79.68,73,40,0.0,SN,1627165865
313,nacala,-14.5428,40.6728,65.89,75,32,12.01,MZ,1627165865
314,killybegs,54.6333,-8.45,59.45,87,30,4.29,IE,1627165866
315,awjilah,29.1081,21.2869,78.33,58,0,12.37,LY,1627165866
316,botro,7.8525,-5.3106,76.48,77,99,3.91,CI,1627165867
317,paamiut,61.994,-49.6678,41.67,86,87,13.96,GL,1627165867
318,sawtell,-30.3833,153.1,62.62,46,0,12.66,AU,1627165867
319,ilhabela,-23.7781,-45.3581,63.86,83,0,4.03,BR,1627165868
320,ximei,24.9639,118.3794,83.93,83,87,3.27,CN,1627165868
321,superior,46.7208,-92.1041,89.71,26,1,12.66,US,1627165869
322,antofagasta,-23.65,-70.4,58.28,80,42,9.42,CL,1627165869
323,jeremie,18.65,-74.1167,82.44,81,85,7.87,HT,1627165870
324,port shepstone,-30.7414,30.455,52.2,75,0,8.39,ZA,1627165870
325,sapa,5.1544,120.3241,83.55,81,96,11.77,PH,1627165870
326,khoy,38.5504,44.9535,73.15,61,0,5.37,IR,1627165871
327,estevan,49.1334,-102.9842,84.54,24,20,16.11,CA,1627165871
328,ostrovnoy,68.0531,39.5131,44.22,88,94,21.7,RU,1627165871
329,kavaratti,10.5669,72.642,82.08,79,84,19.57,IN,1627165872
330,challapata,-18.9,-66.7667,47.8,33,7,1.88,BO,1627165872
331,aklavik,68.2191,-135.0107,67.03,82,75,10.36,CA,1627165873
332,vardo,70.3705,31.1107,46.06,85,98,27.96,NO,1627165873
333,lakes entrance,-37.8811,147.981,46.18,60,78,16.04,AU,1627165873
334,rawson,-43.3002,-65.1023,47.64,44,100,15.37,AR,1627165768
335,carauari,-4.8828,-66.8958,79.07,77,42,3.0,BR,1627165874
336,sivas,39.7916,37.0019,52.43,81,0,4.61,TR,1627165874
337,spring valley,36.108,-115.245,101.21,28,40,3.44,US,1627165539
338,pochutla,15.7432,-96.4661,93.02,66,100,7.38,MX,1627165875
339,sechura,-5.5569,-80.8222,69.42,69,4,15.39,PE,1627165875
340,samarai,-10.6167,150.6667,79.9,85,95,13.85,PG,1627165876
341,itoman,26.1247,127.6694,80.98,96,75,18.41,JP,1627165876
342,ust-nera,64.5667,143.2,57.65,98,100,7.76,RU,1627165876
343,sturgeon falls,46.3646,-79.9326,66.88,96,100,15.77,CA,1627165877
344,koumac,-20.5667,164.2833,77.14,58,5,1.48,NC,1627165877
345,urucara,-2.5364,-57.76,80.19,60,97,3.13,BR,1627165877
346,oppdal,62.5943,9.6912,61.61,83,83,4.27,NO,1627165878
347,berlevag,70.8578,29.0864,45.12,88,100,25.97,NO,1627165878
348,malmyzh,56.5205,50.6818,47.25,62,39,7.16,RU,1627165878
349,buchanan,5.8808,-10.0467,75.16,82,68,8.05,LR,1627165879
350,troitsko-pechorsk,62.7084,56.1964,40.05,95,70,6.08,RU,1627165879
351,port augusta,-32.5,137.7667,44.74,80,14,6.76,AU,1627165879
352,yarada,17.65,83.2667,82.72,94,40,4.61,IN,1627165880
353,basco,20.4487,121.9702,82.89,86,91,32.3,PH,1627165880
354,coruripe,-10.1256,-36.1756,73.38,79,0,13.13,BR,1627165880
355,umba,66.6871,34.3429,53.64,79,100,12.66,RU,1627165880
356,kongolo,-5.3833,27.0,74.86,36,18,3.62,CD,1627165881
357,jalu,29.0331,21.5482,78.28,58,0,12.73,LY,1627165881
358,warwick,41.7001,-71.4162,80.02,63,75,10.36,US,1627165714
359,barcelos,41.5388,-8.6151,63.91,95,71,1.95,PT,1627165881
360,okhotsk,59.3833,143.3,55.94,94,100,12.46,RU,1627165882
361,boguchany,58.3814,97.4531,65.17,71,1,3.27,RU,1627165882
362,souillac,-20.5167,57.5167,70.18,83,40,11.5,MU,1627165882
363,beziers,43.3476,3.219,78.08,56,0,8.05,FR,1627165883
364,udalguri,26.7667,92.1333,79.32,89,100,1.59,IN,1627165884
365,springbok,-29.6643,17.8865,48.31,16,20,11.54,ZA,1627165884
366,aripuana,-9.1667,-60.6333,80.69,44,41,1.68,BR,1627165885
367,muli,2.9167,73.5667,82.22,77,99,5.88,MV,1627165885
368,rovaniemi,66.5,25.7167,58.41,77,40,2.3,FI,1627165885
369,katsuura,35.1333,140.3,84.11,75,4,10.11,JP,1627165885
370,illela,13.7292,5.2975,83.53,60,43,9.55,NG,1627165886
371,krasnaya gorbatka,55.8703,41.7641,56.73,59,100,3.53,RU,1627165886
372,bethanien,-26.502,17.1583,47.79,17,3,6.6,NA,1627165886
373,warrnambool,-38.3833,142.4833,43.81,78,98,24.38,AU,1627165887
374,colimes,-1.55,-80.0167,79.59,75,100,2.93,EC,1627165887
375,huangchuan,32.1272,115.0394,76.5,93,4,7.07,CN,1627165888
376,salinopolis,-0.6136,-47.3561,77.97,85,74,10.87,BR,1627165729
377,storforshei,66.4043,14.5233,52.66,99,100,0.92,NO,1627165888
378,aswan,24.0934,32.907,89.51,25,0,11.59,EG,1627165691
379,atasu,48.6814,71.6433,77.63,25,7,8.12,KZ,1627165889
380,synya,65.3718,58.0387,43.95,95,100,6.2,RU,1627165890
381,college place,46.0493,-118.3883,98.42,20,1,1.99,US,1627165890
382,inhambane,-23.865,35.3833,64.47,64,91,12.28,MZ,1627165890
383,skjern,55.95,8.5,66.92,75,94,3.0,DK,1627165890
384,valreas,44.3837,4.9908,74.82,90,100,3.89,FR,1627165891
385,challans,46.8436,-1.8749,64.96,90,60,13.76,FR,1627165891
386,youhao,47.8667,128.8333,72.36,90,100,2.89,CN,1627165892
387,eureka,40.8021,-124.1637,74.12,68,29,5.01,US,1627165612
388,swan hill,-35.3378,143.5544,42.89,79,21,14.07,AU,1627165892
389,havoysund,70.9963,24.6622,45.48,83,100,20.96,NO,1627165892
390,koungou,-12.7336,45.2042,76.71,73,40,23.02,YT,1627165893
391,leshukonskoye,64.8989,45.7622,45.68,95,98,6.82,RU,1627165893
392,riyadh,24.6877,46.7219,91.54,20,0,5.91,SA,1627165894
393,mantua,45.1667,10.7833,79.84,78,22,5.01,IT,1627165894
394,vila velha,-20.3297,-40.2925,67.95,73,0,3.44,BR,1627165698
395,ndele,8.4109,20.6473,69.53,97,92,4.0,CF,1627165895
396,carlsbad,33.1581,-117.3506,93.76,74,1,5.01,US,1627165894
397,havelock,34.8791,-76.9013,83.05,56,1,1.99,US,1627165896
398,teahupoo,-17.8333,-149.2667,76.96,72,17,8.7,PF,1627165896
399,rancho palos verdes,33.7445,-118.387,93.94,77,40,5.99,US,1627165819
400,polunochnoye,60.8697,60.4153,44.13,88,98,3.27,RU,1627165896
401,barabai,-2.5833,115.3833,69.94,86,24,2.68,ID,1627165897
402,phonhong,18.5007,102.4166,73.17,98,98,1.57,LA,1627165897
403,irbeyskoye,55.6428,95.4522,60.22,77,3,5.91,RU,1627165898
404,wilmington,34.2257,-77.9447,84.94,64,1,10.36,US,1627165179
405,gigmoto,13.7796,124.39,82.69,80,71,13.71,PH,1627165898
406,san eugenio,16.3598,120.357,80.47,87,100,7.65,PH,1627165898
407,abapo,-18.8333,-63.4667,72.81,45,0,3.71,BO,1627165899
408,khasan,42.4308,130.6434,75.18,92,53,2.33,RU,1627165899
409,lesozavodsk,45.4794,133.4244,79.16,74,39,7.45,RU,1627165900
410,zholymbet,51.7433,71.7122,70.3,31,59,8.57,KZ,1627165901
411,uruzgan,32.8333,66.0,76.42,19,1,4.59,AF,1627165901
412,itoigawa,37.0333,137.85,83.61,68,1,2.71,JP,1627165901
413,ivanovka,42.8878,75.085,72.03,28,0,3.53,KG,1627165902
414,piacabucu,-10.4056,-36.4344,74.68,75,1,13.15,BR,1627165902
415,leninskiy,54.2781,37.4558,59.32,58,99,2.48,RU,1627165903
416,prince rupert,54.3161,-130.3201,62.69,70,75,4.61,CA,1627165879
417,ewa beach,21.3156,-158.0072,89.55,61,75,13.8,US,1627165903
418,surt,31.2089,16.5887,79.14,70,0,9.08,LY,1627165903
419,coahuayana,18.7333,-103.6833,92.68,70,43,5.79,MX,1627165904
420,kalmunai,7.4167,81.8167,80.92,70,100,8.14,LK,1627165904
421,chuzhou,32.3219,118.2978,76.48,89,100,10.89,CN,1627165905
422,pudozh,61.8099,36.5345,57.74,66,100,6.46,RU,1627165905
423,tura,25.5198,90.2201,74.73,96,97,5.14,IN,1627165905
424,wajima,37.4,136.9,81.32,75,0,0.09,JP,1627165906
425,alanya,36.5438,31.9998,77.13,53,13,3.89,TR,1627165906
426,nago,26.5881,127.9761,81.03,87,95,14.83,JP,1627165907
427,los llanos de aridane,28.6585,-17.9182,70.12,78,12,17.27,ES,1627165907
428,peniche,39.3558,-9.3811,67.48,89,50,7.16,PT,1627165907
429,lucapa,-8.4192,20.7447,68.95,34,4,3.74,AO,1627165908
430,coihaique,-45.5752,-72.0662,38.01,87,0,5.75,CL,1627165908
431,nueve de julio,-35.4444,-60.8831,51.71,85,95,10.33,AR,1627165800
432,vitre,48.1178,-1.2058,63.48,97,41,9.8,FR,1627165909
433,charlottetown,46.2352,-63.1267,70.32,71,20,4.0,CA,1627165909
434,longhua,23.6137,114.1919,81.27,79,35,1.54,CN,1627165909
435,taleigao,15.4667,73.8,79.66,84,86,15.3,IN,1627165910
436,cayenne,4.9333,-52.3333,82.09,81,0,0.0,GF,1627165911
437,tieli,46.95,128.05,71.62,93,100,4.03,CN,1627165911
438,ixtapa,20.7,-105.2,88.83,62,75,10.36,MX,1627165912
439,alhama de murcia,37.851,-1.4251,79.81,64,17,3.11,ES,1627165912
440,mandalgovi,45.7625,106.2708,65.16,70,94,3.31,MN,1627165912
441,castlerea,53.7667,-8.5,59.02,93,13,4.41,IE,1627165913
442,ayia galini,35.1,24.6833,76.59,46,0,12.84,GR,1627165913
443,gizo,-8.103,156.8419,82.2,75,51,6.17,SB,1627165913
444,villa carlos paz,-31.4241,-64.4978,61.9,55,0,8.01,AR,1627165914
445,rundu,-17.9333,19.7667,51.67,43,0,7.38,NA,1627165914
446,baiyin,36.5583,104.2081,76.08,55,24,8.5,CN,1627165915
447,vao,-22.6667,167.4833,71.58,83,3,7.4,NC,1627165915
448,sakaiminato,35.55,133.2333,80.58,69,75,9.22,JP,1627165916
449,jian,27.1172,114.9793,77.47,90,12,5.79,CN,1627165916
450,lerwick,60.1545,-1.1494,55.4,86,71,4.52,GB,1627165916
451,sioux lookout,50.1001,-91.917,79.18,41,40,14.97,CA,1627165917
452,bundaberg,-24.85,152.35,61.09,51,0,3.44,AU,1627165917
453,kothapet,19.3333,79.4833,77.14,88,100,9.01,IN,1627165917
454,margate,51.3813,1.3862,64.11,87,92,1.99,GB,1627165918
455,saint-augustin,51.226,-58.6502,55.35,73,3,8.12,CA,1627165918
456,alice springs,-23.7,133.8833,40.55,56,36,5.75,AU,1627165740
457,mairang,25.5667,91.6333,63.88,97,100,4.03,IN,1627165919
458,havre-saint-pierre,50.2334,-63.5986,62.96,67,1,6.91,CA,1627165919
459,kaeo,-35.1,173.7833,61.32,76,99,13.62,NZ,1627165920
460,keti bandar,24.1447,67.4497,82.78,83,88,20.22,PK,1627165920
461,najran,17.4924,44.1277,84.85,45,76,2.66,SA,1627165920
462,khartoum,15.5518,32.5324,79.02,83,100,1.01,SD,1627165921
463,mareeba,-17.0,145.4333,72.32,81,73,2.86,AU,1627165922
464,taltal,-25.4,-70.4833,58.93,73,8,4.34,CL,1627165922
465,machilipatnam,16.1667,81.1333,82.49,76,83,12.24,IN,1627165923
466,luba,3.4568,8.5547,76.91,80,76,7.11,GQ,1627165923
467,belmonte,-15.8631,-38.8828,73.9,68,90,10.94,BR,1627165924
468,adrar,20.5022,-10.0711,93.63,25,63,5.48,MR,1627165924
469,san francisco,37.7749,-122.4194,97.63,71,40,3.0,US,1627165304
470,marquette,46.5333,-87.6335,79.77,64,19,11.34,US,1627165924
471,san cristobal,7.7669,-72.225,80.78,88,100,4.43,VE,1627165925
472,anadyr,64.75,177.4833,57.7,93,90,5.99,RU,1627165925
473,manaure,11.7751,-72.4445,84.65,69,83,19.86,CO,1627165925
474,playas,-2.6333,-80.3833,71.24,84,83,11.65,EC,1627165926
475,kushmurun,52.4503,64.6311,63.23,93,65,9.28,KZ,1627165815
476,port blair,11.6667,92.75,81.95,83,100,19.89,IN,1627165927
477,horsham,51.064,-0.3272,66.7,87,0,4.61,GB,1627165927
478,nueva helvecia,-34.3,-57.2333,67.59,81,100,10.78,UY,1627165928
479,beidao,34.5686,105.8933,70.66,89,73,2.1,CN,1627165928
480,oran,35.6911,-0.6417,87.73,30,75,8.05,DZ,1627165928
481,waipawa,-41.4122,175.5153,53.02,67,2,10.92,NZ,1627165928
482,mahibadhoo,3.7833,72.9667,82.29,74,97,4.83,MV,1627165929
483,teguise,29.0605,-13.564,68.22,83,20,17.27,ES,1627165929
484,morlaix,48.5833,-4.0,59.32,94,90,5.75,FR,1627165930
485,makakilo city,21.3469,-158.0858,88.12,61,75,13.8,US,1627165858
486,zambezi,-13.5432,23.1047,60.94,53,20,9.44,ZM,1627165930
487,kidal,18.4411,1.4078,88.27,46,10,1.57,ML,1627165931
488,ashqelon,31.6693,34.5715,80.49,78,16,3.69,IL,1627165931
489,nouakchott,18.0858,-15.9785,76.93,79,46,12.93,MR,1627165931
490,cocorit,27.5833,-109.9667,97.14,36,43,16.69,MX,1627165932
491,belyy yar,53.6039,91.3903,67.89,94,0,2.24,RU,1627165932
492,mount isa,-20.7333,139.5,55.17,38,25,8.05,AU,1627165933
493,udachnyy,66.4167,112.4,69.85,50,8,12.21,RU,1627165933
494,marsaxlokk,35.8419,14.5431,81.09,57,0,2.3,MT,1627165933
495,maragogi,-9.0122,-35.2225,72.46,86,8,12.28,BR,1627165934
496,zyryanka,65.75,150.85,65.03,58,100,1.12,RU,1627165934
497,bambanglipuro,-7.95,110.2833,71.65,90,6,5.95,ID,1627165935
498,parainen,60.3067,22.301,59.9,70,42,5.44,FI,1627165936
499,parabel,58.6978,81.4825,61.45,75,8,2.57,RU,1627165936
500,dunedin,-45.8742,170.5036,45.81,52,83,17.0,NZ,1627165936
501,orlik,52.5178,99.825,56.88,84,98,1.19,RU,1627165937
502,lata,40.1629,-8.3327,63.05,97,57,1.97,PT,1627165937
503,kozluk,38.1938,41.4885,64.65,21,0,2.93,TR,1627165938
504,cajimos,12.5946,122.2753,82.24,81,100,28.23,PH,1627165938
505,katobu,-4.9408,122.5276,72.93,88,50,2.1,ID,1627165939
506,wana,32.2989,69.5725,80.67,47,5,2.15,PK,1627165939
507,darnah,32.767,22.6367,78.01,75,0,16.13,LY,1627165939
508,srandakan,-7.9386,110.2506,71.8,90,6,6.04,ID,1627165940
509,lloydminster,53.2835,-110.0016,78.48,33,75,16.11,CA,1627165814
510,rawlins,41.7911,-107.2387,86.34,13,20,5.75,US,1627165940
511,abu zabad,12.35,29.25,76.8,71,93,3.74,SD,1627165940
512,beloha,-25.1667,45.05,61.99,48,70,9.04,MG,1627165941
513,hofn,64.2539,-15.2082,52.36,88,59,17.38,IS,1627165941
514,klyuchi,52.2667,79.1667,66.74,73,3,3.98,RU,1627165942
515,emerald,-23.5333,148.1667,59.99,49,0,2.3,AU,1627165942
516,pemangkat,1.1667,108.9667,78.69,89,42,6.42,ID,1627165942
517,luchegorsk,46.4764,134.2569,78.01,76,28,5.68,RU,1627165943
518,chuguyevka,44.1653,133.8633,81.91,72,21,2.82,RU,1627165943
519,quilmana,-12.95,-76.3833,63.61,81,41,5.32,PE,1627165944
520,shelburne,44.0787,-80.2041,69.42,100,100,19.42,CA,1627165778
521,athol,42.5959,-72.2268,81.12,48,1,8.05,US,1627165919
522,bonthe,7.5264,-12.505,75.85,86,100,6.33,SL,1627165944
523,mahon,39.8885,4.2658,77.56,88,20,14.97,ES,1627165945
524,saint-joseph,-21.3667,55.6167,66.56,80,29,7.18,RE,1627165945
525,nantucket,41.2835,-70.0995,75.96,74,1,6.91,US,1627165945
526,quatre cocos,-20.2078,57.7625,69.91,80,26,11.56,MU,1627165946
