,City,Lat,Lng,Max Temp,Humidity,Cloudiness,Wind Speed,Country,Date
0,khatanga,71.9667,102.5,56.7,69,48,16.35,RU,1627160941
1,hilo,19.7297,-155.09,91.27,77,90,6.91,US,1627160930
2,kodiak,57.79,-152.4072,58.51,82,75,8.05,US,1627160943
3,leningradskiy,69.3833,178.4167,37.54,94,100,5.26,RU,1627160943
4,torbay,47.6666,-52.7314,67.75,77,50,11.27,CA,1627160943
5,faanui,-16.4833,-151.75,76.96,75,49,11.32,PF,1627160944
6,vandra,58.6481,25.0361,51.19,70,4,3.65,EE,1627160944
7,kapaa,22.0752,-159.319,84.18,80,75,5.99,US,1627160945
8,geraldton,-28.7667,114.6,54.01,94,90,9.22,AU,1627160945
9,moerai,-22.4333,-151.3333,70.74,62,63,3.31,PF,1627160945
10,port alfred,-33.5906,26.891,54.23,74,0,18.54,ZA,1627160946
11,rikitea,-23.1203,-134.9692,69.22,54,0,1.21,PF,1627160946
12,jacareacanga,-6.2222,-57.7528,92.59,32,99,2.42,BR,1627160946
13,bredasdorp,-34.5322,20.0403,47.19,68,15,4.36,ZA,1627160947
14,beyneu,45.3167,55.2,85.19,41,67,13.91,KZ,1627160948
15,yellowknife,62.456,-114.3525,56.32,54,75,7.0,CA,1627160948
16,tazovskiy,67.4667,78.7,48.61,91,100,6.46,RU,1627160948
17,ushuaia,-54.8,-68.3,38.86,87,75,3.44,AR,1627160948
18,ahipara,-35.1667,173.1667,57.16,79,100,12.64,NZ,1627160949
19,pokhara,28.2333,83.9833,74.1,97,100,0.18,NP,1627160949
20,hay river,60.8156,-115.7999,48.88,69,100,3.04,CA,1627160950
21,arlit,18.7369,7.3853,98.6,27,98,12.37,NE,1627160950
22,codrington,-38.2667,141.9667,43.95,73,92,17.94,AU,1627160950
23,qaanaaq,77.484,-69.3632,41.38,67,100,1.45,GL,1627160951
24,cidreira,-30.1811,-50.2056,61.52,69,2,6.46,BR,1627160951
25,east london,-33.0153,27.9116,55.92,69,0,15.39,ZA,1627160951
26,mar del plata,-38.0023,-57.5575,50.13,44,76,11.99,AR,1627160952
27,ivanteyevka,55.9711,37.9208,60.49,71,43,0.76,RU,1627160952
28,vaini,-21.2,-175.2,78.96,94,20,4.61,TO,1627160953
29,luebo,-5.35,21.4167,74.91,37,1,1.63,CD,1627160953
30,hermanus,-34.4187,19.2345,51.91,57,13,4.79,ZA,1627160953
31,itaituba,-4.2761,-55.9836,91.45,36,99,2.44,BR,1627160954
32,hithadhoo,-0.6,73.0833,81.97,78,40,11.36,MV,1627160954
33,cherskiy,68.75,161.3,48.81,68,89,3.71,RU,1627160954
34,palmer,42.1584,-72.3287,83.64,40,20,1.01,US,1627160955
35,rosetta,31.4044,30.4164,77.43,77,0,13.38,EG,1627160955
36,jamestown,42.097,-79.2353,75.09,87,90,5.99,US,1627160942
37,emba,48.8264,58.1442,72.28,44,0,8.88,KZ,1627160955
38,mataura,-46.1927,168.8643,43.48,88,100,3.56,NZ,1627160956
39,kununurra,-15.7667,128.7333,73.38,46,100,8.05,AU,1627160956
40,marsh harbour,26.5412,-77.0636,78.39,68,100,13.35,BS,1627160732
41,cape town,-33.9258,18.4232,52.27,75,9,5.01,ZA,1627160711
42,san andres,12.5847,-81.7006,86.02,79,75,14.97,CO,1627160953
43,victoria,22.2855,114.1577,82.38,92,98,1.99,HK,1627160957
44,tangwani,28.2787,68.9972,91.33,41,24,3.33,PK,1627160957
45,ribeira grande,38.5167,-28.7,73.27,89,89,9.95,PT,1627160934
46,barrow,71.2906,-156.7887,42.82,87,90,3.44,US,1627160701
47,saldanha,-33.0117,17.9442,53.51,63,25,12.75,ZA,1627160958
48,olafsvik,64.8945,-23.7142,50.29,88,77,13.58,IS,1627160958
49,ugoofaaru,5.6667,73.0,82.29,74,83,6.46,MV,1627160959
50,albany,42.6001,-73.9662,82.58,48,83,1.01,US,1627160811
51,tuktoyaktuk,69.4541,-133.0374,58.8,43,49,8.81,CA,1627160960
52,mirnyy,62.5353,113.9611,57.67,77,58,2.62,RU,1627160960
53,bilma,18.6853,12.9164,87.57,47,99,11.86,NE,1627160960
54,chuy,-33.6971,-53.4616,56.62,85,96,6.17,UY,1627160960
55,sur,22.5667,59.5289,89.22,61,71,10.45,OM,1627160961
56,arraial do cabo,-22.9661,-42.0278,69.66,68,0,16.11,BR,1627160757
57,katsuura,35.1333,140.3,78.91,84,5,8.68,JP,1627160961
58,norman wells,65.282,-126.8329,68.7,41,100,7.43,CA,1627160962
59,san patricio,28.017,-97.5169,98.02,36,0,15.41,US,1627160962
60,adana,36.985,35.2881,81.81,91,0,3.44,TR,1627160886
61,wrzesnia,52.3251,17.5652,69.87,68,59,8.5,PL,1627160963
62,alofi,-19.0595,-169.9187,77.83,79,23,9.53,NU,1627160963
63,ozinki,51.1786,49.6769,64.09,65,30,7.11,RU,1627160964
64,sitka,57.0531,-135.33,57.09,82,90,9.22,US,1627160939
65,hobart,-42.8794,147.3294,46.26,64,75,3.0,AU,1627160893
66,bull savanna,17.8868,-77.5902,81.91,69,77,5.44,JM,1627160964
67,lompoc,34.6391,-120.4579,94.6,70,75,13.8,US,1627160965
68,busselton,-33.65,115.3333,57.09,68,98,16.08,AU,1627160936
69,zhigansk,66.7697,123.3711,57.2,73,32,15.82,RU,1627160966
70,iqaluit,63.7506,-68.5145,46.13,76,75,10.36,CA,1627160966
71,mineros,-17.1167,-63.2333,87.39,26,0,9.55,BO,1627160966
72,alto araguaia,-17.3147,-53.2153,78.78,28,0,6.24,BR,1627160966
73,tornio,65.8481,24.1466,53.62,88,81,9.24,FI,1627160967
74,clyde river,70.4692,-68.5914,38.75,79,100,12.82,CA,1627160967
75,makakilo city,21.3469,-158.0858,86.32,61,75,11.5,US,1627160967
76,mount gambier,-37.8333,140.7667,44.15,70,100,14.56,AU,1627160968
77,kologriv,58.8275,44.3178,50.59,57,64,4.76,RU,1627160968
78,misratah,32.3754,15.0925,80.92,65,0,8.81,LY,1627160968
79,pietermaritzburg,-29.6168,30.3928,47.77,90,0,3.87,ZA,1627160969
80,kahului,20.8947,-156.47,87.82,80,40,21.85,US,1627160935
81,esperance,-33.8667,121.9,52.29,80,1,18.14,AU,1627160969
82,walvis bay,-22.9575,14.5053,70.09,21,6,9.64,NA,1627160970
83,varnamo,57.186,14.04,68.88,89,1,4.92,SE,1627160970
84,anadyr,64.75,177.4833,55.0,100,100,5.99,RU,1627160970
85,chokurdakh,70.6333,147.9167,43.02,70,67,16.04,RU,1627160970
86,puerto ayora,-0.7393,-90.3518,74.55,80,21,7.0,EC,1627160971
87,biu,10.6129,12.1946,70.66,85,75,5.86,NG,1627160804
88,batemans bay,-35.7167,150.1833,49.91,52,31,11.27,AU,1627160971
89,pilot butte,50.4668,-104.4178,81.63,28,0,20.4,CA,1627160972
90,punta arenas,-53.15,-70.9167,41.11,75,75,11.5,CL,1627160770
91,airai,-8.9266,125.4092,55.26,40,6,2.91,TL,1627160973
92,booue,-0.0921,11.9385,75.56,79,86,2.89,GA,1627160973
93,dawei,14.0833,98.2,75.38,96,100,4.34,MM,1627160974
94,kjollefjord,70.9457,27.3465,44.6,85,100,24.25,NO,1627160974
95,tiksi,71.6872,128.8694,40.96,83,35,4.99,RU,1627160974
96,klaksvik,62.2266,-6.589,50.92,94,81,15.99,FO,1627160975
97,gorgan,36.8387,54.4348,82.08,81,63,4.12,IR,1627160975
98,worland,44.0169,-107.9554,94.35,24,1,1.99,US,1627160975
99,bambous virieux,-20.3428,57.7575,67.21,79,26,9.71,MU,1627160976
100,bafra,41.5678,35.9069,73.18,76,0,6.15,TR,1627160976
101,trapani,37.8333,12.6667,81.28,46,0,3.44,IT,1627160976
102,srednekolymsk,67.45,153.6833,51.46,61,100,15.08,RU,1627160977
103,severo-kurilsk,50.6789,156.125,55.89,94,51,0.87,RU,1627160937
104,berlevag,70.8578,29.0864,45.01,86,100,26.17,NO,1627160977
105,lipin bor,60.2622,37.9763,55.31,57,95,4.68,RU,1627160977
106,repalle,16.0167,80.85,83.35,71,65,10.29,IN,1627160978
107,nouadhibou,20.931,-17.0347,68.61,91,2,15.43,MR,1627160978
108,vanavara,60.34,102.2797,62.35,77,77,2.62,RU,1627160978
109,broken hill,-31.95,141.4333,43.97,82,36,15.43,AU,1627160979
110,oneonta,42.4529,-75.0638,80.11,64,100,4.83,US,1627160979
111,vila velha,-20.3297,-40.2925,71.55,64,20,5.75,BR,1627160979
112,cabo san lucas,22.8909,-109.9124,97.81,62,1,16.11,MX,1627160980
113,eustis,28.8528,-81.6853,94.19,49,20,13.8,US,1627160980
114,belaya gora,68.5333,146.4167,50.59,60,95,16.8,RU,1627160980
115,rapid valley,44.0625,-103.1463,93.42,29,1,1.99,US,1627160981
116,bartica,6.4,-58.6167,79.12,92,95,3.87,GY,1627160981
117,sao joao da barra,-21.6403,-41.0511,71.69,68,0,12.06,BR,1627160854
118,madang,-5.2246,145.7966,75.52,90,80,3.06,PG,1627160981
119,oktyabrskiy,54.4815,53.471,55.35,90,85,5.19,RU,1627160982
120,noumea,-22.2763,166.4572,70.0,99,1,3.94,NC,1627160982
121,lebu,-37.6167,-73.65,51.93,77,99,15.82,CL,1627160982
122,longyearbyen,78.2186,15.6401,44.44,81,75,18.41,SJ,1627160983
123,upernavik,72.7868,-56.1549,40.06,84,97,5.3,GL,1627160983
124,rupert,42.6191,-113.6772,89.55,17,1,9.22,US,1627160983
125,carnarvon,-24.8667,113.6333,59.07,71,100,10.36,AU,1627160984
126,avarua,-21.2078,-159.775,77.05,69,25,10.36,CK,1627160928
127,beni,0.5,29.4667,66.13,81,92,1.19,CD,1627160984
128,thompson,55.7435,-97.8558,69.96,60,75,14.97,CA,1627160810
129,stephenville,32.2207,-98.2023,97.77,35,1,6.91,US,1627160985
130,bodh gaya,24.7,84.9833,80.92,82,37,7.76,IN,1627160985
131,aller,43.1187,-5.5839,62.26,98,58,3.6,ES,1627160985
132,port-gentil,-0.7193,8.7815,75.43,73,98,12.12,GA,1627160986
133,namibe,-15.1961,12.1522,65.66,86,0,4.97,AO,1627160986
134,vulcan,45.3833,23.2667,60.04,74,43,2.46,RO,1627160986
135,huarmey,-10.0681,-78.1522,67.33,73,13,8.72,PE,1627160987
136,miyako,39.6367,141.9525,73.98,85,37,2.71,JP,1627160987
137,mahibadhoo,3.7833,72.9667,82.24,75,97,4.99,MV,1627160987
138,toktogul,41.8708,72.9402,74.37,36,0,2.28,KG,1627160988
139,natal,-5.795,-35.2094,77.65,73,0,6.91,BR,1627160981
140,mahebourg,-20.4081,57.7,67.24,79,25,9.46,MU,1627160988
141,vardo,70.3705,31.1107,46.11,83,99,27.92,NO,1627160989
142,damavand,35.7178,52.065,82.24,32,8,6.6,IR,1627160836
143,pedernales,18.0384,-71.744,85.6,69,90,5.26,DO,1627160989
144,butaritari,3.0707,172.7902,83.71,73,100,15.32,KI,1627160989
145,panzhihua,26.5851,101.7128,68.7,93,19,1.19,CN,1627160990
146,meulaboh,4.1363,96.1285,76.32,87,96,3.36,ID,1627160990
147,andilamena,-17.0167,48.5833,52.75,95,39,5.21,MG,1627160960
148,isangel,-19.55,169.2667,77.94,80,8,4.0,VU,1627160990
149,west wendover,40.7391,-114.0733,96.01,10,1,8.05,US,1627160991
150,lavrentiya,65.5833,-171.0,45.1,98,100,11.07,RU,1627160991
151,kaitangata,-46.2817,169.8464,37.42,73,89,4.47,NZ,1627160991
152,bluff,-46.6,168.3333,43.81,70,100,10.76,NZ,1627160992
153,paamiut,61.994,-49.6678,41.92,91,84,12.12,GL,1627160992
154,ketchikan,55.3422,-131.6461,61.27,72,75,14.97,US,1627160992
155,jalapa,19.5333,-96.9167,75.81,51,64,6.22,MX,1627160872
156,petropavlovsk-kamchatskiy,53.0452,158.6483,54.19,100,90,2.24,RU,1627160993
157,vanimo,-2.6741,141.3028,74.7,92,100,5.19,PG,1627160993
158,sangueya,10.7,-14.3667,75.11,93,100,10.47,GN,1627160994
159,mangan,27.5167,88.5333,77.47,88,99,1.19,IN,1627160994
160,nikolskoye,59.7035,30.7861,57.09,69,46,3.69,RU,1627160994
161,tasiilaq,65.6145,-37.6368,41.16,98,100,4.72,GL,1627160995
162,bethel,41.3712,-73.414,83.48,58,1,1.01,US,1627160792
163,laukaa,58.7372,29.8453,52.84,64,10,1.66,RU,1627160996
164,kruisfontein,-34.0033,24.7314,47.14,45,3,8.25,ZA,1627160936
165,saskylakh,71.9167,114.0833,58.66,54,100,6.71,RU,1627160997
166,georgetown,5.4112,100.3354,83.89,86,20,2.3,MY,1627160997
167,rumoi,43.9344,141.6428,72.37,84,23,4.7,JP,1627160997
168,camaguey,21.3808,-77.9169,86.34,74,75,16.11,CU,1627160998
169,nuuk,64.1835,-51.7216,43.41,75,75,5.75,GL,1627160998
170,vestmannaeyjar,63.4427,-20.2734,51.4,87,72,12.21,IS,1627160998
171,atuona,-9.8,-139.0333,78.71,68,40,16.67,PF,1627160859
172,pijijiapan,15.7011,-93.23,89.62,56,100,7.02,MX,1627160999
173,sunnyside,46.3237,-120.0087,95.56,25,1,0.0,US,1627160999
174,san pedro,14.35,121.0167,80.15,91,100,18.7,PH,1627161000
175,lagoa,39.05,-27.9833,70.54,91,63,14.65,PT,1627161000
176,linguere,15.3953,-15.1193,90.32,32,96,7.38,SN,1627161000
177,makinsk,52.6292,70.4169,72.03,38,99,8.08,KZ,1627161001
178,grindavik,63.8424,-22.4338,50.56,87,75,14.97,IS,1627161001
179,sao filipe,14.8961,-24.4956,74.55,74,78,10.22,CV,1627161002
180,chipata,-13.6333,32.65,54.9,75,31,11.03,ZM,1627161002
181,svay rieng,11.0879,105.7993,78.24,75,100,13.06,KH,1627161004
182,ponta do sol,32.6667,-17.1,74.71,82,0,4.88,PT,1627161005
183,morondava,-20.2833,44.2833,70.92,42,2,19.98,MG,1627160838
184,volterra,43.4003,10.86,75.76,65,54,4.36,IT,1627161005
185,port elizabeth,-33.918,25.5701,51.62,61,2,8.97,ZA,1627161006
186,sangar,63.9242,127.4739,60.55,69,1,7.43,RU,1627161006
187,ancud,-41.8697,-73.8203,45.93,74,100,3.11,CL,1627161007
188,kholm,59.2667,32.85,51.4,63,27,4.41,RU,1627161007
189,barcelona,41.3888,2.159,80.35,72,0,3.44,ES,1627160795
190,sechura,-5.5569,-80.8222,72.01,66,6,16.89,PE,1627161007
191,nantucket,41.2835,-70.0995,77.97,75,1,8.05,US,1627160901
192,north bend,43.4065,-124.2243,69.17,79,90,26.46,US,1627160973
193,bathsheba,13.2167,-59.5167,81.97,78,58,13.04,BB,1627161008
194,lajas,18.05,-67.0593,87.19,75,16,8.01,PR,1627161009
195,andros town,24.7,-77.7667,85.96,66,100,4.05,BS,1627161009
196,limache,-33.0167,-71.2667,56.1,73,99,3.44,CL,1627161010
197,castro,-24.7911,-50.0119,58.26,67,0,3.62,BR,1627161010
198,naze,28.3667,129.4833,77.49,92,100,23.38,JP,1627161010
199,dingle,10.9995,122.6711,78.21,86,91,12.64,PH,1627161011
200,saint-philippe,-21.3585,55.7679,65.79,78,47,5.17,RE,1627161011
201,beatrice,40.2681,-96.747,94.98,58,1,3.44,US,1627161011
202,pimenta bueno,-11.6725,-61.1936,94.37,24,7,3.58,BR,1627160763
203,udachnyy,66.4167,112.4,62.29,53,10,7.56,RU,1627161012
204,pisco,-13.7,-76.2167,66.25,68,0,17.27,PE,1627161013
205,kameyama,34.85,136.45,80.38,90,23,1.21,JP,1627161013
206,mehamn,71.0357,27.8492,44.4,86,100,24.23,NO,1627161014
207,new norfolk,-42.7826,147.0587,45.91,70,76,1.99,AU,1627161014
208,trinidad,-14.8333,-64.9,91.38,49,0,6.91,BO,1627161014
209,sioux lookout,50.1001,-91.917,81.93,26,4,16.46,CA,1627161015
210,adrar,20.5022,-10.0711,94.24,24,54,7.25,MR,1627161015
211,baisha,26.5222,110.9311,73.18,98,53,1.97,CN,1627161015
212,vostok,46.4856,135.8833,72.82,80,79,3.24,RU,1627161016
213,selma,36.5708,-119.6121,102.09,26,1,5.75,US,1627161017
214,severo-yeniseyskiy,60.3725,93.0408,58.77,69,2,3.74,RU,1627161017
215,van buren,35.4368,-94.3483,98.19,54,75,5.75,US,1627160977
216,phuket,8.0,98.25,87.1,83,20,11.5,TH,1627161017
217,erenhot,43.6475,111.9767,64.18,87,100,20.2,CN,1627161018
218,kjopsvik,68.097,16.3742,55.17,98,100,4.72,NO,1627161018
219,dedovichi,57.5517,29.9502,56.98,66,41,4.16,RU,1627161018
220,outjo,-20.1167,16.15,53.13,16,0,10.13,NA,1627161019
221,ust-kuyga,70.0167,135.6,53.94,60,100,6.67,RU,1627161019
222,hami,42.8,93.45,85.96,35,0,5.44,CN,1627161019
223,provideniya,64.3833,-173.3,47.12,98,100,12.88,RU,1627161020
224,flinders,-34.5833,150.8552,50.38,58,41,11.99,AU,1627161020
225,gazalkent,41.5581,69.7708,79.16,18,0,8.03,UZ,1627161020
226,yulara,-25.2406,130.9889,35.44,75,42,4.61,AU,1627161021
227,teguise,29.0605,-13.564,68.22,83,20,19.57,ES,1627161021
228,tortoli,39.9256,9.6572,76.98,44,20,8.12,IT,1627161022
229,aksarka,66.5606,67.7975,57.25,66,67,14.45,RU,1627161022
230,ostrovnoy,68.0531,39.5131,47.03,88,98,20.78,RU,1627161023
231,camopi,3.1655,-52.3158,78.24,86,71,2.44,GF,1627161023
232,kitui,-1.367,38.0106,59.95,84,12,10.67,KE,1627161023
233,zonguldak,41.25,31.8333,59.41,88,1,3.06,TR,1627161024
234,brownsville,25.9018,-97.4975,93.88,55,1,5.99,US,1627161025
235,luderitz,-26.6481,15.1594,64.65,27,14,5.7,NA,1627161025
236,balkhash,46.844,74.9804,76.59,39,2,1.01,KZ,1627161025
237,palencia,42.4167,-4.5,65.1,74,8,13.89,ES,1627161026
238,bonavista,48.6499,-53.1147,64.11,82,79,9.26,CA,1627161026
239,plettenberg bay,-34.0527,23.3716,52.72,42,22,5.7,ZA,1627161026
240,meshchovsk,54.3244,35.2808,52.99,71,1,1.92,RU,1627161027
241,axim,4.8699,-2.2405,74.98,81,26,5.86,GH,1627161027
242,aykhal,66.0,111.5,60.3,59,0,8.55,RU,1627161027
243,mopipi,-21.1833,24.8833,52.63,51,0,15.99,BW,1627161028
244,kavieng,-2.5744,150.7967,82.17,76,12,9.33,PG,1627161028
245,dikson,73.5069,80.5464,37.98,94,100,20.67,RU,1627161028
246,riachao das neves,-11.7461,-44.91,77.16,36,100,4.43,BR,1627161029
247,malakal,9.5334,31.6605,71.6,97,87,6.85,SS,1627161023
248,sisimiut,66.9395,-53.6735,40.51,93,100,5.48,GL,1627161029
249,aqtobe,50.2797,57.2072,64.49,63,0,6.71,KZ,1627161030
250,do gonbadan,30.3586,50.7981,94.15,22,71,3.58,IR,1627161030
251,celestun,20.8667,-90.4,85.57,70,20,15.08,MX,1627161030
252,kedainiai,55.2883,23.9747,61.27,73,0,3.02,LT,1627161031
253,buchanan,5.8808,-10.0467,75.16,82,50,7.25,LR,1627161031
254,manjeshwar,12.7194,74.8861,77.95,91,51,7.11,IN,1627161031
255,canutama,-6.5339,-64.3831,84.25,59,98,3.02,BR,1627161032
256,charters towers,-20.1,146.2667,54.54,54,16,10.4,AU,1627161033
257,saint george,37.1041,-113.5841,95.59,31,1,0.0,US,1627161033
258,ville-marie,47.3335,-79.433,60.8,97,100,14.63,CA,1627160839
259,clervaux,50.0547,6.0314,60.66,94,55,5.14,LU,1627161033
260,la ronge,55.1001,-105.2842,72.23,41,68,15.57,CA,1627161034
261,aksu,41.1231,80.2644,82.18,38,0,3.18,CN,1627161034
262,nurlat,54.4277,50.8051,53.22,82,12,6.6,RU,1627161035
263,puqi,29.7167,113.8833,74.82,93,0,3.09,CN,1627161035
264,pitimbu,-7.4706,-34.8086,75.79,80,47,14.81,BR,1627161036
265,haldibari,26.3333,88.7667,78.91,93,36,5.91,IN,1627161036
266,luzhou,28.8724,105.4405,75.24,94,50,0.38,CN,1627161037
267,atar,20.5169,-13.0499,97.63,18,70,8.46,MR,1627161037
268,tuatapere,-46.1333,167.6833,43.83,81,100,6.64,NZ,1627161037
269,mindyak,54.0231,58.7891,56.8,80,88,3.65,RU,1627161038
270,namatanai,-3.6667,152.4333,79.39,80,16,3.4,PG,1627161039
271,ha tinh,18.3333,105.9,76.8,90,97,4.76,VN,1627161039
272,tourlaville,49.6383,-1.5664,61.66,94,99,10.54,FR,1627161040
273,kudahuvadhoo,2.6708,72.8944,82.8,74,100,7.54,MV,1627161040
274,nago,26.5881,127.9761,81.03,90,92,13.76,JP,1627161041
275,morehead,37.2711,-87.1764,93.15,60,40,1.01,US,1627161041
276,puerto del rosario,28.5004,-13.8627,74.95,69,20,13.8,ES,1627161041
277,scarborough,54.2797,-0.4044,61.84,83,100,7.02,GB,1627160854
278,asyut,27.181,31.1837,85.35,28,0,8.08,EG,1627161042
279,fort nelson,58.8053,-122.7002,68.77,42,72,3.13,CA,1627161042
280,meadow lake,34.8014,-106.5436,87.71,38,97,12.17,US,1627161043
281,muros,42.7762,-9.0603,64.99,93,66,1.7,ES,1627160911
282,hofn,64.2539,-15.2082,52.63,91,97,18.59,IS,1627161044
283,ilmajoki,62.7333,22.5667,58.53,57,40,0.0,FI,1627161044
284,santiago,-33.4569,-70.6483,55.85,62,75,0.0,CL,1627161044
285,lorengau,-2.0226,147.2712,81.21,75,63,6.4,PG,1627161045
286,urucui,-7.2294,-44.5561,86.18,29,1,5.68,BR,1627161045
287,alta floresta,-9.8756,-56.0861,91.13,25,48,3.11,BR,1627161045
288,kushima,31.4583,131.2333,78.12,91,100,11.39,JP,1627161046
289,ouango,4.3133,22.5552,70.84,97,85,1.7,CF,1627161046
290,mayo,38.8876,-76.5119,86.11,60,90,8.01,US,1627161047
291,surt,31.2089,16.5887,79.79,69,0,10.8,LY,1627161014
292,port hardy,50.6996,-127.4199,63.05,83,99,3.51,CA,1627161047
293,fort morgan,40.2503,-103.8,93.85,13,1,8.05,US,1627161048
294,padang,-0.9492,100.3543,77.0,85,85,3.31,ID,1627161048
295,fereydun kenar,36.6864,52.5225,81.99,77,9,6.91,IR,1627161049
296,nanortalik,60.1432,-45.2371,43.41,97,100,11.97,GL,1627161049
297,havre-saint-pierre,50.2334,-63.5986,61.54,79,20,7.56,CA,1627161049
298,souillac,-20.5167,57.5167,67.35,83,17,7.83,MU,1627161050
299,kloulklubed,7.0419,134.2556,82.4,81,100,10.83,PW,1627161050
300,anloga,5.7947,0.8973,76.5,78,38,12.03,GH,1627161050
301,yar-sale,66.8333,70.8333,50.04,88,0,8.61,RU,1627161051
302,la tuque,47.4334,-72.7824,78.49,38,88,10.87,CA,1627161051
303,touros,-5.1989,-35.4608,77.9,70,11,17.98,BR,1627161052
304,sibolga,1.7427,98.7792,76.68,83,100,3.04,ID,1627161052
305,garden city,42.3256,-83.331,86.83,70,75,16.11,US,1627160692
306,horsham,51.064,-0.3272,67.86,83,0,2.3,GB,1627161052
307,sorland,67.667,12.6934,52.48,94,100,14.54,NO,1627161053
308,bereda,43.2686,-7.5406,61.92,100,16,1.86,ES,1627161053
309,alpena,45.0617,-83.4327,77.94,94,90,12.66,US,1627161054
310,mogadishu,2.0371,45.3438,76.5,81,16,23.06,SO,1627161054
311,fuxin,42.0156,121.6589,72.9,86,8,5.28,CN,1627161055
312,nampa,43.5407,-116.5635,97.11,17,1,0.0,US,1627161055
313,palana,59.1167,159.9667,49.39,98,100,5.68,RU,1627161056
314,kijang,35.2442,129.2139,76.53,92,100,6.87,KR,1627161056
315,labuhan,-6.8844,112.2051,72.55,87,3,6.58,ID,1627161057
316,aklavik,68.2191,-135.0107,53.89,85,100,6.93,CA,1627161057
317,hasaki,35.7333,140.8333,75.6,83,0,8.79,JP,1627161058
318,male,4.1748,73.5089,82.09,77,100,5.59,MV,1627161041
319,auchel,50.5034,2.4735,63.45,86,56,0.45,FR,1627161059
320,liverpool,53.4106,-2.9779,64.29,69,20,3.0,GB,1627161059
321,trelew,-43.249,-65.3051,49.42,33,100,14.54,AR,1627161036
322,wynyard,-41.0,145.7167,42.96,66,17,15.7,AU,1627161060
323,baker city,44.7749,-117.8344,92.93,17,1,9.22,US,1627161060
324,iwanai,42.9744,140.5089,72.57,89,44,4.47,JP,1627161061
325,kapit,2.0167,112.9333,74.37,91,99,0.83,MY,1627161061
326,markova,48.6758,24.4138,62.01,78,83,4.43,UA,1627161062
327,sayyan,15.1718,44.3244,64.45,64,87,2.59,YE,1627161062
328,sakakah,29.9697,40.2064,90.28,27,0,5.82,SA,1627161063
329,mosquera,4.7059,-74.2302,59.09,82,75,9.22,CO,1627161029
330,cristian,45.6167,25.4667,61.95,78,4,4.09,RO,1627161064
331,waitati,-45.75,170.5667,45.81,58,100,6.93,NZ,1627161064
332,burns lake,54.2331,-125.7533,68.29,40,93,10.22,CA,1627161065
333,gemena,3.25,19.7667,72.97,84,100,0.89,CD,1627161065
334,rio gallegos,-51.6226,-69.2181,39.25,65,0,6.91,AR,1627160807
335,chicama,-7.8447,-79.1469,66.74,67,6,10.36,PE,1627161066
336,pevek,69.7008,170.3133,36.79,91,96,11.32,RU,1627160933
337,lere,10.387,8.5726,67.39,98,97,4.41,NG,1627161067
338,juneau,58.3019,-134.4197,60.85,94,75,6.91,US,1627161067
339,bilibino,68.0546,166.4372,53.89,60,28,1.92,RU,1627161068
340,gravdal,68.1214,13.5031,51.82,97,100,11.81,NO,1627161012
341,sonoita,31.85,-112.8333,76.53,49,100,6.55,MX,1627161068
342,mana,5.6592,-53.7767,79.52,87,100,9.86,GF,1627161069
343,fairbanks,64.8378,-147.7164,64.4,78,90,3.0,US,1627160874
344,nizwa,22.9333,57.5333,89.8,50,95,5.23,OM,1627161069
345,singapore,1.2897,103.8501,82.35,78,75,5.75,SG,1627161031
346,port hedland,-20.3167,118.5667,57.25,72,11,5.75,AU,1627161070
347,kincardine,56.0667,-3.7167,64.38,94,13,4.65,GB,1627161070
348,bengkulu,-3.8004,102.2655,74.93,87,31,4.61,ID,1627161071
349,aktau,43.65,51.2,75.78,62,5,14.09,KZ,1627161071
350,tahta,26.7693,31.5021,85.93,26,0,5.44,EG,1627161072
351,north myrtle beach,33.816,-78.68,88.25,63,1,7.0,US,1627161072
352,tautira,-17.7333,-149.15,80.62,73,12,10.49,PF,1627161072
353,los llanos de aridane,28.6585,-17.9182,69.12,89,20,16.11,ES,1627161073
354,mareeba,-17.0,145.4333,65.12,87,58,2.51,AU,1627161073
355,guanare,9.0418,-69.7421,81.68,82,100,4.47,VE,1627161074
356,azare,11.6765,10.1948,76.95,77,70,7.78,NG,1627161074
357,krivodol,43.3744,23.4844,69.21,50,8,5.5,BG,1627161075
358,barcelos,41.5388,-8.6151,66.85,94,65,2.8,PT,1627161075
359,kargasok,59.0556,80.8572,63.27,73,5,5.86,RU,1627161075
360,faya,18.3851,42.4509,64.92,69,67,3.78,SA,1627161076
361,port-cartier,50.0334,-66.8654,66.92,66,0,6.67,CA,1627161077
362,ixtapa,20.7,-105.2,87.22,66,40,9.22,MX,1627161077
363,san cristobal,7.7669,-72.225,82.58,69,100,4.92,VE,1627161077
364,samarai,-10.6167,150.6667,79.09,87,92,10.74,PG,1627161078
365,beloha,-25.1667,45.05,60.58,53,60,6.69,MG,1627161079
366,rawlins,41.7911,-107.2387,86.43,15,40,4.61,US,1627161080
367,glace bay,46.1969,-59.957,66.06,74,34,4.0,CA,1627161080
368,kieta,-6.2167,155.6333,79.92,80,100,2.73,PG,1627161080
369,hambantota,6.1241,81.1185,79.21,84,91,14.54,LK,1627161081
370,bara,10.3744,10.7288,72.86,92,33,5.75,NG,1627161081
371,morgan city,29.6994,-91.2068,97.03,62,20,4.61,US,1627161081
372,hirara,24.8,125.2833,83.88,85,100,28.5,JP,1627161082
373,passagem franca,-6.1797,-43.7836,83.46,36,34,3.24,BR,1627161083
374,jeffersontown,38.1942,-85.5644,91.4,52,20,1.99,US,1627161083
375,marrakesh,31.6315,-8.0083,95.07,28,75,3.44,MA,1627160898
376,portland,45.5234,-122.6762,91.98,40,1,3.0,US,1627160615
377,susanville,40.4163,-120.653,96.64,11,1,4.0,US,1627160801
378,nampula,-15.1165,39.2666,60.89,74,99,8.66,MZ,1627161084
379,talnakh,69.4865,88.3972,48.25,91,100,1.34,RU,1627161084
380,umm lajj,25.0213,37.2685,86.52,44,0,8.57,SA,1627161085
381,ascension,30.2169,-90.9001,98.1,58,75,3.44,US,1627161085
382,obo,5.3998,26.4869,68.85,95,93,2.75,CF,1627161085
383,micheweni,-4.9667,39.8333,75.97,72,0,17.83,TZ,1627161086
384,ilulissat,69.2167,-51.1,44.62,81,90,9.22,GL,1627161086
385,tieli,46.95,128.05,69.17,94,100,5.91,CN,1627161087
386,krasnoselkup,65.7,82.4667,58.23,92,93,8.7,RU,1627161087
387,slavonice,48.9975,15.3515,72.93,77,35,11.61,CZ,1627161088
388,ibra,22.6906,58.5334,87.12,55,76,6.49,OM,1627161088
389,poplar bluff,36.757,-90.3929,94.62,75,40,1.01,US,1627161089
390,haines junction,60.7522,-137.5108,61.57,48,83,6.87,CA,1627161089
391,langsa,4.4683,97.9683,75.09,91,100,2.08,ID,1627161089
392,halifax,44.6453,-63.5724,73.53,64,64,3.0,CA,1627160582
393,basco,20.4487,121.9702,83.26,86,94,32.08,PH,1627161090
394,jalu,29.0331,21.5482,81.61,47,0,16.02,LY,1627161090
395,neuquen,-38.9516,-68.0591,51.69,32,0,5.75,AR,1627160912
396,coihaique,-45.5752,-72.0662,39.81,81,0,3.44,CL,1627161091
397,bahia blanca,-38.7196,-62.2724,52.5,46,100,9.17,AR,1627160846
398,muisne,0.6,-80.0333,76.82,76,100,11.34,EC,1627161091
399,oksfjord,70.2396,22.3479,50.07,93,94,7.72,NO,1627161092
400,gat,31.61,34.7642,79.81,77,1,2.53,IL,1627160884
401,cayenne,4.9333,-52.3333,83.08,78,0,4.0,GF,1627161092
402,beasain,43.0502,-2.2009,69.55,88,2,0.81,ES,1627161092
403,touba,8.2833,-7.6833,69.39,97,96,4.36,CI,1627161093
404,khani,41.9563,42.9566,63.97,98,99,1.97,GE,1627161093
405,kaputa,-8.4689,29.6619,68.4,57,10,9.84,ZM,1627161094
406,samana,19.2056,-69.3369,86.22,79,40,6.91,DO,1627161094
407,okhotsk,59.3833,143.3,56.16,94,100,11.39,RU,1627161094
408,ukiah,39.1502,-123.2078,105.51,17,1,4.61,US,1627161095
409,cockburn town,21.4612,-71.1419,82.65,77,3,15.57,TC,1627161095
410,jumla,29.2747,82.1838,61.72,95,98,1.07,NP,1627161095
411,nagua,19.3832,-69.8474,89.46,66,75,11.5,DO,1627161095
412,kade,52.3833,12.2667,76.08,69,51,7.9,DE,1627161096
413,altay,47.8667,88.1167,64.26,51,0,4.79,CN,1627161096
414,tocopilla,-22.092,-70.1979,66.13,68,27,13.58,CL,1627161097
415,saint-quentin,49.8333,3.3333,64.44,87,47,4.83,FR,1627161097
416,sovetskiy,61.3614,63.5842,51.53,83,100,8.08,RU,1627161098
417,olenegorsk,68.15,33.3,46.09,90,100,12.28,RU,1627161099
418,bandarbeyla,9.4942,50.8122,77.27,75,22,27.78,SO,1627160936
419,sebring,27.4956,-81.4409,93.81,54,40,5.99,US,1627161099
420,cururupu,-1.8283,-44.8683,77.47,83,73,3.04,BR,1627161099
421,rio verde de mato grosso,-18.9181,-54.8442,84.78,23,0,4.76,BR,1627160973
422,mirabad,30.4362,61.8383,95.79,10,0,20.85,AF,1627161100
423,abu dhabi,24.4667,54.3667,96.91,63,2,5.75,AE,1627160777
424,dandong,40.1292,124.3947,71.51,85,17,3.87,CN,1627160948
425,acucena,-19.0731,-42.5464,62.82,69,0,2.15,BR,1627161101
426,pochutla,15.7432,-96.4661,91.22,56,100,7.49,MX,1627161101
427,zabol,32.25,67.25,78.57,18,3,6.78,AF,1627161101
428,palu,-0.8917,119.8707,74.88,95,95,3.09,ID,1627161102
429,wilmington,34.2257,-77.9447,86.95,59,1,9.22,US,1627160816
430,menongue,-14.6585,17.691,53.8,33,0,4.81,AO,1627161102
431,kenai,60.5544,-151.2583,60.89,91,90,11.5,US,1627161102
432,matagami,49.7502,-77.6328,63.34,89,100,14.9,CA,1627161103
433,belmonte,-15.8631,-38.8828,73.9,64,85,10.6,BR,1627161103
434,tete,-16.1564,33.5867,68.09,52,40,12.66,MZ,1627161103
435,villacarrillo,38.1156,-3.0848,75.18,18,7,1.3,ES,1627161104
436,oyama,36.3,139.8,82.58,80,0,2.64,JP,1627161104
437,tezu,27.9167,96.1667,77.4,95,99,1.99,IN,1627161105
438,ust-tsilma,65.441,52.1498,44.47,97,100,7.49,RU,1627161105
439,mopti,14.6667,-4.0,91.6,41,99,6.91,ML,1627161106
440,kalmunai,7.4167,81.8167,81.21,70,100,5.97,LK,1627161106
441,sokoni,-6.4333,39.55,76.59,76,75,22.3,TZ,1627161106
442,katesh,-4.5167,35.3833,52.45,70,7,7.43,TZ,1627161107
443,bridlington,54.0831,-0.1919,61.29,88,100,9.66,GB,1627161107
444,castiglion fiorentino,43.3428,11.918,78.08,62,97,0.6,IT,1627161108
445,moron,-34.6534,-58.6198,61.02,86,100,7.0,AR,1627160935
446,ialibu,-6.2821,143.9935,55.24,98,99,1.61,PG,1627161108
447,ilhabela,-23.7781,-45.3581,64.96,80,0,3.0,BR,1627161108
448,kabalo,-6.05,26.9167,78.57,33,17,4.41,CD,1627161109
449,batagay,67.6333,134.6333,62.15,65,45,8.03,RU,1627161109
450,presidencia roque saenz pena,-26.7852,-60.4388,86.65,29,7,7.85,AR,1627161110
451,inta,66.0317,60.1659,47.88,91,100,11.25,RU,1627161110
452,bismarck,46.8083,-100.7837,91.24,22,1,12.66,US,1627160885
453,jucas,-6.5253,-39.5275,81.48,43,3,8.12,BR,1627161110
454,ucluelet,48.9329,-125.5528,85.05,83,11,4.0,CA,1627161045
455,colares,38.7992,-9.4469,68.99,74,20,5.01,PT,1627161111
456,yatou,37.15,122.3833,74.98,86,91,2.75,CN,1627161111
457,bowen,-20.0167,148.2333,62.74,53,4,10.98,AU,1627161111
458,asfi,32.2994,-9.2372,70.57,76,19,21.18,MA,1627161112
459,laguna,38.421,-121.4238,104.43,29,1,1.99,US,1627161112
460,camacupa,-12.0167,17.4833,59.34,30,0,2.66,AO,1627161112
461,allende,25.2833,-100.0167,96.75,33,6,8.84,MX,1627161113
462,qasigiannguit,68.8193,-51.1922,44.85,91,97,9.37,GL,1627161113
463,ambalavao,-21.8333,46.9333,53.04,92,100,6.58,MG,1627161114
464,madison,34.7334,-86.5667,91.81,65,20,1.01,US,1627160923
465,camana,-16.6228,-72.7111,63.32,76,51,8.66,PE,1627161115
466,camacha,33.0833,-16.3333,68.76,78,20,11.5,PT,1627161099
467,deputatskiy,69.3,139.9,47.62,65,47,5.3,RU,1627160938
468,san quintin,30.4833,-115.95,74.05,69,89,12.66,MX,1627161115
469,oum hadjer,13.2954,19.6966,87.46,47,100,9.51,TD,1627161005
470,shelton,41.3165,-73.0932,84.49,57,1,1.01,US,1627161116
471,maragogi,-9.0122,-35.2225,73.76,79,0,9.71,BR,1627161116
472,karratha,-20.7377,116.8463,69.3,47,100,7.47,AU,1627161116
473,petrovskoye,57.0104,39.2693,49.42,70,11,4.29,RU,1627161117
474,salinopolis,-0.6136,-47.3561,79.05,83,88,10.47,BR,1627161117
475,tual,-5.6667,132.75,79.52,74,100,9.75,ID,1627160962
476,viedma,-40.8135,-62.9967,47.62,52,100,10.85,AR,1627161118
477,pucara,-15.9803,-71.4606,42.91,33,87,10.02,PE,1627161118
478,chiang rai,19.9167,99.9167,77.13,97,100,1.68,TH,1627161119
479,rio grande city,26.3798,-98.8203,96.89,24,0,18.75,US,1627161119
480,itupiranga,-5.1347,-49.3267,88.12,42,55,0.85,BR,1627161119
481,phitsanulok,16.9167,100.5,71.1,95,100,4.12,TH,1627161120
482,boa vista,2.8197,-60.6733,84.18,65,75,14.97,BR,1627161120
483,gorontalo,0.5412,123.0595,75.0,82,100,1.39,ID,1627161121
484,prince rupert,54.3161,-130.3201,59.38,83,86,3.58,CA,1627161121
485,husavik,66.0449,-17.3389,53.87,93,71,4.65,IS,1627161121
486,yokadouma,3.5167,15.05,68.85,97,100,1.66,CM,1627161122
487,sorong,-0.8833,131.25,76.35,87,100,10.09,ID,1627161122
488,iberia,29.9502,-91.7507,95.09,55,1,0.0,US,1627161123
489,wuwei,37.9281,102.6414,74.59,50,94,7.99,CN,1627161123
490,farafangana,-22.8167,47.8333,66.7,69,100,14.09,MG,1627161124
491,lebyazhye,55.2689,66.4947,64.47,95,100,4.81,RU,1627161124
492,wamba,8.9333,8.6,69.94,96,39,3.65,NG,1627161125
493,conway,35.0887,-92.4421,97.09,56,1,5.75,US,1627161001
494,beian,63.6559,9.5683,58.91,94,0,6.91,NO,1627161125
495,puerto quijarro,-17.7833,-57.7667,93.52,22,1,3.65,BO,1627161069
496,bacolod,10.6667,122.95,78.46,88,75,14.27,PH,1627161126
497,havelock,34.8791,-76.9013,84.92,59,0,4.0,US,1627160928
498,bintulu,3.1667,113.0333,78.01,90,86,3.22,MY,1627161126
499,voznesenye,61.0106,35.4781,56.71,61,70,10.8,RU,1627161127
500,boyolangu,-8.1181,111.8935,71.13,91,48,2.48,ID,1627161127
501,pacific grove,36.6177,-121.9166,86.81,75,1,5.99,US,1627160863
502,plouzane,48.3833,-4.6167,60.89,94,75,3.44,FR,1627161128
503,nanakuli,21.3906,-158.1547,87.75,62,75,11.5,US,1627161128
504,doctor arroyo,23.6667,-100.1833,82.09,19,4,8.55,MX,1627161129
505,garowe,8.4054,48.4845,78.1,48,63,25.46,SO,1627161129
506,sussex,41.1834,-74.6663,83.44,54,1,4.61,US,1627160855
507,priladozhskiy,59.85,31.4833,56.86,32,45,5.88,RU,1627161130
508,aljezur,37.3191,-8.8033,63.21,88,0,12.44,PT,1627161130
509,miri,4.4148,114.0089,78.85,89,92,3.74,MY,1627161130
510,ochamchira,42.7121,41.4721,71.04,90,89,4.36,GE,1627161131
511,formosa,-26.1775,-58.1781,81.09,38,19,6.13,AR,1627161131
512,tara,56.8944,74.371,69.03,91,100,4.23,RU,1627161132
513,jawhar,2.7809,45.5005,74.08,77,23,18.5,SO,1627161132
514,aswan,24.0934,32.907,90.57,24,0,11.92,EG,1627161132
515,thunder bay,48.4001,-89.3168,89.29,32,0,3.0,CA,1627161042
516,ponta delgada,37.7333,-25.6667,72.32,88,20,14.97,PT,1627161133
517,nambour,-26.6333,152.95,60.85,60,52,3.0,AU,1627161133
518,victor harbor,-35.5667,138.6167,52.72,76,69,17.96,AU,1627161133
519,santa isabel do rio negro,-0.4139,-65.0192,80.96,92,41,1.34,BR,1627161134
520,tuy hoa,13.0833,109.3,81.73,66,99,14.0,VN,1627161054
521,antalaha,-14.9003,50.2788,66.92,79,90,8.01,MG,1627161075
522,whitianga,-36.8333,175.7,56.01,84,57,14.43,NZ,1627161134
523,kawhia,-38.0651,174.8183,53.15,77,20,11.83,NZ,1627161135
524,malanje,-9.5402,16.341,69.78,23,0,2.3,AO,1627161135
525,shubarshi,48.5872,57.1869,72.03,42,0,8.84,KZ,1627161136
526,ames,42.0347,-93.6199,94.06,57,20,9.22,US,1627161136
527,bozeman,45.6796,-111.0386,87.19,18,0,1.01,US,1627161136
528,opuwo,-18.0607,13.84,58.39,15,0,7.72,NA,1627161136
529,lahij,13.1667,44.5833,79.84,68,100,1.79,YE,1627161137
530,lazaro cardenas,17.9583,-102.2,85.59,74,50,9.64,MX,1627161137
531,akdepe,42.0551,59.3788,82.4,15,2,8.9,TM,1627161138
532,komsomolskiy,40.4272,71.7189,80.02,22,0,3.94,UZ,1627161138
533,manono,-7.3,27.4167,76.06,29,1,4.88,CD,1627161138
534,amapa,1.0,-52.0,79.72,77,98,2.08,BR,1627161139
535,lerwick,60.1545,-1.1494,55.4,82,86,7.38,GB,1627161139
536,gigmoto,13.7796,124.39,81.36,84,60,13.24,PH,1627161140
537,taoudenni,22.6783,-3.9836,103.6,8,3,9.4,ML,1627161140
538,bergerac,44.8333,0.5,64.62,82,0,5.75,FR,1627161129
539,selikhino,50.3672,137.4996,75.94,83,31,5.32,RU,1627161141
540,hokitika,-42.7167,170.9667,47.48,80,95,7.34,NZ,1627161141
541,tammisaari,59.9736,23.4339,62.11,65,13,6.89,FI,1627161142
542,makokou,0.5738,12.8642,73.4,77,82,2.21,GA,1627161142
543,maridi,4.9158,29.4742,66.65,97,95,3.42,SS,1627161142
544,robertson,36.5167,-86.8667,94.39,50,1,4.61,US,1627161143
545,buala,-8.145,159.5921,80.2,86,92,11.21,SB,1627161143
546,gamba,-2.65,10.0,71.02,83,69,5.44,GA,1627161143
547,shingu,33.7333,135.9833,75.9,84,88,4.72,JP,1627161144
548,nizhniy baskunchak,48.2198,46.8311,76.44,37,0,11.18,RU,1627161144
549,bouca,6.5105,18.2733,69.93,97,100,3.09,CF,1627161076
550,evensk,61.95,159.2333,50.77,97,100,1.72,RU,1627161145
551,awjilah,29.1081,21.2869,80.82,49,0,15.9,LY,1627161145
552,hamilton,39.1834,-84.5333,90.21,59,20,1.01,US,1627161146
553,sabratah,32.7933,12.4885,84.61,43,0,13.85,LY,1627161146
554,chapais,49.7834,-74.8492,77.65,33,100,13.85,CA,1627161147
555,margate,51.3813,1.3862,66.31,88,100,1.99,GB,1627161147
556,kaeo,-35.1,173.7833,59.32,79,99,12.01,NZ,1627161147
557,athabasca,54.7169,-113.2854,77.81,24,11,19.39,CA,1627160927
558,sobolevo,54.4299,31.8996,55.99,77,2,3.85,RU,1627161148
559,lakes entrance,-37.8811,147.981,41.58,66,70,17.58,AU,1627161148
560,darhan,49.4867,105.9228,57.31,75,93,3.33,MN,1627161148
561,ormara,25.2088,64.6357,81.99,85,81,16.91,PK,1627161149
562,port blair,11.6667,92.75,81.95,84,100,20.04,IN,1627161145
563,kuytun,54.3419,101.5036,55.04,80,1,2.77,RU,1627161149
564,outlook,51.5001,-107.0513,82.35,23,1,18.25,CA,1627161149
565,buraydah,26.326,43.975,93.97,14,4,7.81,SA,1627161150
566,butembo,0.15,29.2833,60.42,81,99,2.53,CD,1627161150
567,tamandare,-8.7597,-35.1047,74.26,78,1,10.18,BR,1627161151
568,bantou,26.2151,117.4893,74.64,99,62,2.44,CN,1627161151
569,beringovskiy,63.05,179.3167,53.01,85,100,8.72,RU,1627161152
570,kitimat,54.0524,-128.6534,63.91,74,96,4.0,CA,1627161152
571,saint-georges,12.0564,-61.7485,81.66,77,83,11.07,GD,1627160916
572,kushiro,42.975,144.3747,64.98,99,98,4.36,JP,1627160901
573,san rafael,-34.6177,-68.3301,55.11,38,28,5.46,AR,1627161153
574,elizabeth city,36.2946,-76.2511,86.02,50,1,9.22,US,1627161037
